ID,명칭,우편번호,관리자,전화번호,주소,위도,경도,개요,문의 및 안내,규모,좌석수,주차 시설,어린이놀이방,개업일,영업시간,쉬는날,대표메뉴,취급메뉴,할인정보,금연/흡연,신용카드정보,포장가능,예약안내,상세정보,인허가번호
1827714,올래국수,63119,올래국수,064-742-7355,제주특별자치도 제주시 귀아랑길 24 ,33.4914891794,126.4972061735,"올래국수는 제주시 연동에 있는 제주 대표 고기국수 음식점이다. 올래국수 단일메뉴만 취급하며 두툼한 고기와 중면이 구수한 사골국물과 어우러져 깊은 맛을 자랑한다. tvN 수요미식회를 포함에 다수의 방송에 소개된 맛집으로 한국의 설렁탕보다 진한 국물로 손님의 입맛을 사로잡았다.
가게는 오전 8시 30분 오픈과 동시에 북적이기 시작하며 자리에 앉으면 국수가 바로 나온다. 돼지 뼈와 고기를 넣고 푹 끓인 육수에 중간 크기 면을 맛 정통 제주 고기국수의 맛을 느낄 수 있다. 큼직한 돼지고기를 듬뿍 넣은 덕분에 한 그릇 먹고 나면 마음까지 든든해진다.",064-742-7355,,,,0,,08:20 ~ 15:00 (라스트오더 14:50),"매주 일요일 / 설,추석 연휴",고기국수,고기국수,,모두 금연석,가능,,,"화장실:있음(남/녀 구분)

",20060628172.0
1882353,둠비정원,63565,둠비정원,064-739-7787,제주특별자치도 서귀포시 신중로13번길 20 (강정동),33.2571735807,126.5078799725,"둠비란 두부의 제주 방언이다. 제주 서귀포시 강정동에 있는 둠비정원은 100% 국내산 콩으로 직접 만든 두부 요리 전문점이다.
국산 콩을 9시간 이상 불려 두부를 제조한다. 또  콩을 갈아서 비지와 함께 끓인 다음 비지를 분리하는 전통 방식의 온비지 여과로 두부를 만들어 맛 좋은 두부를 선보인다. 비지를 짤 때 세기를 조절해 콩의 식감이 살아있게 만들었다. 당일 생산 및 당일 판매 원칙으로 물량 소진 시 영업이 종료된다.
주변 관광지로는 천지연  정방폭포  외돌개가 있다.",064-739-7787,,,,0,,11:00 ~ 21:00 (브레이크타임 15:00 ~ 17:00),매주 일요일,비지찌개,비지찌개/해물순두부/두부두루치기/두부김치 등,,모두 금연석,가능,,전화 예약 문의 (064-739-7787),"화장실:있음
",19950631120.0
2363045,와랑와랑,63610,와랑와랑,070-4656-1761,제주특별자치도 서귀포시 남원읍 위미중앙로300번길 28 ,33.2722634836,126.6765427957,"와랑와랑은 제주 올레 5코스가 지나는 서귀포 위미리 마을 안에 자리한 카페이다. 카페 앞 돌담 너머에 풍성한 감귤밭이 펼쳐져 있고  근처에는 동백나무 군락지가 있다.
유기농 감귤로 만든 영귤차  영귤에이드  감귤 스무디 등의 음료를 판매하며 친환경 국산 콩가루로 만든 겨울 별미 찰떡구이도 인기가 많다. 나무와 돌로 카페 내부를 장식해 따뜻한 분위기에서 디저트 메뉴를 즐길 수 있다.
올레시장  이중섭거리  서귀포성당과 가까이에 있다.",070-4656-1761,,,주차 가능,0,,11:00 ~ 18:00,연중무휴,핸드드립커피,핸드드립커피/ 영귤차/ 제주레몬차/찰떡구이/구좌당근주스,,모두 금연석,가능,가능(일부 메뉴),,"화장실:있음(남/녀구분)
",20130631003.0
2385005,카페코지,63643,카페코지,064-784-1005,제주특별자치도 서귀포시 성산읍 한도로 200 ,33.4682431337,126.929291427,카페코지는 일출봉  오조리바다  성산항 이 세 가지를 동시에 즐길 수 있는 베이커리 카페이자 북카페이다. 제주도의 성산일출봉을 바라보며 LP를 듣고  책을 보고  커피 한잔을 즐길 수 있다. 매일 아침에 건강한 쌀빵을 만들어 판매하고 있으며  소금빵과 식빵이 인기가 많다.,064-784-1005,,,가능,0,,09:00~22:00<br>라스트오더 21:45,매주 일요일,일출봉 크림라떼,일출봉 크림라떼 / 소금빵 / 샤갈의 눈내리는 생망고빙수 / 말차식빵 / 퀸즈크라운 / 코지시나몬 외,,모두 금연석,가능,가능,가능(전화 문의),"화장실:있음(남/녀 구분)
",20120631270.0
2654186,지미스,63365,지미스,010-9868-8633,제주특별자치도 제주시 우도면 우도해안길 1132 ,33.4977793773,126.9674124414,제주특별자치도 제주시에 있는 카페이다. 대표메뉴는 아이스크림이다. 땅콩은 우도의 특산물이다.,010-9868-8633,,,,0,,08:00-17:30,,아이스크림,아이스크림 / 주스,,금연,없음,,,,20180620417.0
2678844,제원삼계탕,63129,제원삼계탕,064-742-7250,제주특별자치도 제주시 제원길 16 ,33.4885227142,126.489229156,싱싱한 전복을 넣은 삼계탕을 만날 수 있다. 대표메뉴는 삼계탕이다. 제주특별자치도 제주시에 있는 한식전문점이다.,064-742-7250,,,,0,,11:00-20:00,,삼계탕,삼계탕 / 전복삼계탕,,금연,없음,,,,19870627133.0
2679127,우진해장국,63168,우진해장국,064-757-3393,제주특별자치도 제주시 서사로 11 ,33.5115900951,126.5200370657,제주식 해장국 요리를 맛볼 수 있는 곳이다. 대표메뉴는 육개장이다. 제주특별자치도 제주시에 있는 한식 전문점이다.,064-757-3393,,,,0,,06:00-22:00,연중무휴,육개장,육개장 / 녹두빈대떡,,금연,없음,,,,20020627011.0
2805240,가파도별미식당,63510,,,제주특별자치도 서귀포시 대정읍 영서중로 59 ,33.2215375052,126.260049487,가파도별미식당은 가파도 보릿가루로 반죽한 보말보리수제비와 보말죽 삼계탕이 대표 메뉴이다. 크림스프처럼 부드럽고 뜨끈한 보말죽 삼계탕은 환절기 몸보신으로 제격이다.,064-794-0320,,,,0,,11:00~20:00<br>※ 재료 소진시 조기마감,연중무휴,보말죽 삼계탕,보말죽 삼계탕 / 전복죽 삼계탕 / 보말보리수제비 외,,,,,,,19990631399.0
2678751,명진전복,63360,명진전복,064-782-9944,제주특별자치도 제주시 구좌읍 해맞이해안로 1282 ,33.5324764068,126.8494496455,"제주도에서 유명한 전복요리를 판매하는 곳이다. 대표메뉴는 전복돌솥밥이다. 가게 앞이 바다라서 창가쪽에 앉으면 바다뷰를 즐길 수 있다 
전복돌솥밥을 시키면 고등어구이와 낙지젓갈이 나오며 돌솥에 만든 누룽지밥이랑 같이 먹으면 끊임없이 들어간다. 여러 명이 가면 전복 버터구이도 같이 시켜먹는 것을 추천한다.",064-782-9944,,,,0,,09:30 ~ 21:30 (라스트 오더 20:30),화요일,전복돌솥밥,전복돌솥밥 / 전복죽 외,,금연,없음,,,,20120627621.0
2767638,소금바치순이네,63364,,,제주특별자치도 제주시 구좌읍 해맞이해안로 2196 ,33.5036972787,126.9126503843,소금바치 순이네는 종달리 해안로에 자리하고 있는 해산물 요리 전문점이다. 예능 프로그램에도 나와 더욱 유명해진 맛집이다. 이 집의 대표 메뉴는 매콤 달콤한 양념에 부드러운 식감의 돌문어를 각종 채소에 무쳐 만든 돌문어 볶음이다. 전복죽  성게국  보말국 등 싱싱한 해산물 메뉴도 다양하다. 바로 앞에는 우도와 일출봉이 보이는 전망대가 있고  근처에는 종달과 우도를 연결하는 항로가 있어 여객선이 자주 왕래한다. 식사 후 전망로를 따라 산책하기에도 좋다.,064-784-1230,,,가능,0,,09:30~19:00 (브레이크타임 15:00~16:30),"매월 첫째 주, 셋째 주 목요일",돌문어볶음,해물탕 / 모둠해산물 / 해물뚝배기 / 갈치조림 등,,,가능,가능,없음,"화장실:있음 (남녀 구분)

",20080627418.0
2767722,해심가든,63545,,,제주특별자치도 서귀포시 천제연로 203-4 (중문동) ,33.2519506497,126.4265343656,서귀포 중문동에 위치한 해심가든은 돼지갈비 맛집으로 이름을 알린 한식당이다. 돼지 양념갈비도 맛있지만  양념 없이 그냥 구워 먹는 돼지 생갈비 맛이 일품이다. 두툼하면서 부드러운 돼지갈비가 인기이며  탄력 있고 쫄깃한 식감에 육즙이 가득해 유명인들도 즐겨 찾는 곳이다. 돼지갈비는 큼지막하고 두껍게 썰어 고기의 맛을 더욱 풍성하게 살려놓았다. 갈비와 함께 나오는 구수한 된장찌개도 별미다.,064-738-2820,,,가능,0,,12:30~21:30<br>라스트오더 20:30,비정기 휴무,돼지생갈비,돼지생갈비 / 양념갈비 / 흑돼지오겹살 / 성게미역국 외,,,가능,가능,가능(전화 문의),"화장실:있음 (남녀 구분)

",19910631040.0
2805243,몰래물밥상,63113,,,제주특별자치도 제주시  도두항서길 (65) ,33.5041872407,126.4637087977,서울과 제주도 5성급 호텔 마스터 셰프 출신의 20여년 특급호텔 경력의 기능장이 만드는 활우럭조림  제주은갈치조림 전문 식당이다. 톳밥과 함께 직접 만들어 짜지 않은 간장게장  바삭한 멜튀김 등의 다양한 밑반찬이 나온다. 생김에 두부  무  시래기 등을 밥과 함께 싸먹는것이 별미이다.,064-711-8919,,,가능(무료),0,,11:00 ~ 21:00<br>브레이크타임 15:30~17:00<br>라스트오더 14:50/20:20 <br>※ 재료 소진 시 조기 마감,매주 수요일,활우럭조림 밥상 / 제주은갈치조림 밥상,활우럭전복새우조림 밥상 / 제주은갈치전복새우조림 밥상 / 활우럭전복새우조림&활우럭탕수 밥상 등,,,,,,,
2805320,착한제주고등어,63264,,,제주특별자치도 제주시  신산로2길 (25) ,33.5122179512,126.5293084674,착한제주고등어는 제주시 동문재래시장 인근에 위치한 고등어요리 전문점이다. 제주 해역에서 잡은 싱싱한 고등어만을 사용해 건강한 요리를 제공한다. 1인분 주문도 가능하며 제주산 고등어와 갈치를 저렴한 가격에 즐길 수 있다. 밑반찬도 직접 만드는 착한 맛집이다.,064-725-5751,,,,0,,09:00~20:00 (라스트오더 19:30),매주 월요일,고등어구이 / 고등어조림 / 고등어탕,고등어구이 / 고등어조림 / 고등어탕 / 갈치구이 등,,,가능,가능,,,20170627526.0
2807119,고서방 짬뽕,63247,,,제주특별자치도 제주시  인다5길 (11-5) ,33.4759722639,126.5481687628,고서방 짬뽕은 제주 현지의 신선한 해산물을 재료로 한 짬뽕을 판매하는 중식당이다. 해산물이 가득 담긴 다양한 종류의 짬뽕을 기호에 따라 선택하여 맛볼 수 있다.,064-722-0402,,,있음 / 인근 무료공영주차장도 이용 가능,0,,11:00~15:00 (재료 소진 시 마감),매주 일요일 휴무,고추짬뽕,고추짬뽕 / 우삼겹짬뽕 / 흑돼지 등심 탕수육 외,,,가능,가능,,,20140627210.0
2809970,바다밥상,63596,,,제주특별자치도 서귀포시 천지연로 16 ,33.2418928327,126.5646559502,바다밥상은 제주도만의 특색을 느낄 수 있는 맛집이다. 지역주민들 사이에서도 갈치조림 맛집으로 유명하며  갈치조림 뿐만 아니라 갈치구이  고등어구이  우럭매운탕 등 생선요리가 일품이다. 제철에 나는 식재료로 만든 밑반찬은 더욱 푸짐하고 건강한 밥상을 만든다.,064-732-3385,,,,0,,10:30 - 20:00(13:30 - 17:00 브레이크타임),매주 일요일,갈치조림,갈치조림 / 갈치구이 / 고등어구이 / 우럭매운탕 등,,,,,,,
2819194,이스방한상,63152,,,제주특별자치도 제주시 흥운길 87 ,33.5157534201,126.513587532,제주 용두암 근처에 있는 참돔코스요리집이다. 작은상 시그니처 한상 코스로 이루어져 있고 4명이 먹기에 알맞은 양이다. 음식 하나하나 맛있고 간도 적당하다. 부모님이나 어른들을 모시고 가기도 좋은 곳이다.,010-9163-1060,,,,0,,12:00 ~ 22:00 (우선예약제),"매주 수요일, 일요일",시그니쳐 / 한상,시그니쳐 / 한상 / 작은상 외,,,,,,,20200622202.0
2805415,백록집,63333,,,제주특별자치도 제주시 조천읍 함덕로 (24) ,33.5418391874,126.6726564455,백록집은 제주노포로 푸짐하고 맛있는 음식들을 식사로도  반주로도 즐길 수 있는 곳이다. 함덕에서 맛있는 고등어회와 갈치튀김  한치 떡볶이 등 맛없는 게 없는 그야말로 맛집이다. 전 메뉴가 특색 있고 맛있어서 여러 명 가서 이것저것 다 시켜 먹고 싶은 집이다. 레트로 감성과 함께 야외석의 개방감도 함께 느낄 수 있다. 거기에 사장님의 센스 있는 음악 선곡도 좋은 분위기에 한 몫하는 만족도 최상의 맛집이다.,0507-1385-6013,,,,0,,17:00~23:00 (라스트오더 22:00),연중무휴,모둠회,고등어회 / 한치 떡볶이 / 갈치튀김 / 해물라면 외,,,가능,가능,,,20160628209.0
2805483,올티스,63341,,,제주특별자치도 제주시 조천읍 거문오름길 (23-58) ,33.4630486234,126.7174404708,"올티스에서는 제주다원에서 유기농으로 재배한 녹차  홍차  호지차  말차를 생산·가공·유통하고 있다. 올티스의 첫번째 티 테이스팅 클래스 Tea mind""에서는 직영 농장에서 생산한 다양한 차를 전문가의 손길로 정성껏 우려 내어 드린다. 녹차밭에서 다도체험까지 할 수 있어 제주 여행 시 다도체험하기 좋은 장소이다.""",0507-1401-9700,,,주차가능,0,,10:00 ~ 18:00,연중무휴,녹차,녹차 / 말차 / 홍차 / 호지차,,,가능,가능,,,20150628511.0
2806020,삼다숯불갈비,63595,,,제주특별자치도 서귀포시  명동로 (43) ,33.2477616577,126.5664639948,삼다숯불갈비는 제주특별자치도 서귀포시에 위치하고 있다. 제주도민들에게 맛집으로 알려진 숯불갈비 전문점이다. 제주산 돼지고기만을 이용한 생갈비와 돼지양념갈비가 대표메뉴이다. 특히 생갈비는 생고기 본연의 고소한 맛을 느낄 수 있으며 멜젓이 함께 제공되어 풍미를 더한다. 이 외에도 흑돼지 오겹살  가브리살  된장찌개 등 다양한 메뉴가 준비되어 있다.,064-763-0668,,,,0,,17:00~23:00,,돼지생갈비,돼지양념갈비 / 흑돼지 오겹살 / 가브리살 / 된장찌개 / 냉면 외,,,가능,,,,19970631062.0
2806205,애월집,63049,,,제주특별자치도 제주시 애월읍 애월해안로 (690) ,33.4820049659,126.3755752985,애월집은 애월해안도로 쪽에 위치한 음식점이다. 고기국수로 유명한 음식점들 중 한 곳으로 바다뷰를 즐길 수 있고 편안한 분위기이다. 대표 메뉴는 고기와 국수 메뉴이며 깔끔하고 담백한 맛을 내는 국수가 인기이다. 흑돼지로 만든 돈가스는 고기가 부드러워 아이들도 먹을 수 있는 메뉴이다.,0507-1335-7024,,,가능,0,,10:00~21:00,매주 일요일,시글라 고기국수,시글라 고기국수 / 흑돼지 생 돈가스 / 해장고기국수 등,,,가능,"가능 (불가 메뉴 : 고기국수, 매운얼큰고기국수)",,,20180620556.0
2806871,도토리 키친,63167,,,제주특별자치도 제주시  북성로 (59) ,33.5154118713,126.5186037702,"청귤소바는 제주도의 대표과일인 감귤의 미성숙과인 풋귤을 이용하여 자체개발한 요리이다. 고소한 소바와 상큼한 청귤의 조화로 상큼하게 먹을 수 있는 청귤소바에 곁들인  톳유부초밥 세트와 감자고로케 세트 2가지로 즐길 수 있다. 
수제 쯔유로 더 깊은 맛을 내며  면도 쫄깃하고 고소해서 맛있다.",064-782-1021,,,,0,,11:00 - 17:00 (라스트오더 16:30),,청귤소바,청귤소바 / 청귤소바+톳유부초밥 / 롤카베츠 / 소바롤 외,,,가능,가능,,"화장실:있음
",
2807124,채훈이네해장국,63012,,,제주특별자치도 제주시 한림읍 한림상로 29 ,33.4054365995,126.2586594082,채훈이네해장국은 제주도에서만 맛볼 수 있는 고사리 육개장과 몸국이 일품인 음식점이다. 점도 높은 제주식 고사리해장국과 모자반이 한가득 들어있는 몸국도 담백하게 즐길 수 있다.,064-772-3558,,,,0,,06:00~16:00<br>라스트오더 15:30,매주 화요일,제주식 고사리육개장,제주식 고사리육개장 / 제주식 해장국 / 채운이네 몸국 외,,,,가능,,"화장실:있음(남/녀 구분)
",20230906633.0
2819792,그시절그짬뽕,63031,,,제주특별자치도 제주시 한림북동길 7 ,33.4156133393,126.2642809145,그시절그짬뽕은 한림항 한림중앙상가 1층에 위치한 짬뽕 맛집이다. 노부부가 운영하는 가성비 맛집이며  정겨운 분위기로 현지인들의 사랑을 받는 식당이다. 특히 얼큰한 고추짬뽕과 마파두부밥  잡채밥이 특히 인기 있는 메뉴이다.,064-796-8188,,,,0,,11:00~15:00 (라스트오더 14:45),"매주 화요일, 수요일",고추짬뽕,고추짬뽕 / 간짬뽕 / 삼선짬뽕 / 짜장면 외,,,가능,가능,,"화장실:있음
",20200621483.0
2825241,철가방을든해녀,63515,,,제주특별자치도 서귀포시 마라로 85 ,33.116513072,126.265881855,제주 마라도에 위치한 '철가방을든해녀' 톳이 올라간 짜장면이 이색적이다.각종 해산물이 짜장면과 어우러져 바다의 풍미가 물씬 난다. 해녀분이 직접 잡는 해산물도 싱싱하고 맛있어 찾는이가 많다.,064-792-5262,,,,0,,10:00 ~ 16:00,,해녀짜장면,해녀짜장면 / 해녀짬뽕 / 모듬해산물,,,,,,,20110631253.0
2825254,칸스,63591,,,제주특별자치도 서귀포시 중정로61번길 20 ,33.2496002884,126.5629281487,제주산 흑돼지로 만드는 타코 전문점으로 제주 올레시장에 위치하고 있다. 올레시장에서 딱 하나뿐인 타코집으로 유명하며 제주산 흑돼지로 만든 타코와 수제맥주를 맛볼 수 있다. 매장은 멕시코 분위기로 꾸며져 있고 아담한 편이다.,0507-1318-2504,,,가능,0,,12:00~22:00(브레이크타임 15:00~16:00),,흑돼지 파히타,흑돼지 파히타 / 흑돼지 타코 / 부리또 / 퀘사디아 등,,,가능,,,,20190624487.0
2807387,커뮤니테이블,63562,,,제주특별자치도 서귀포시  월평로 (15) ,33.244832508,126.4593011267,서귀포 월평마을에 위치한 아담한 식당이다. 창가 너머 따뜻한 햇살이 식탁으로 들어와 아늑하고 낭만적인 분위기이다. 계절별로 맛이 좋은 생선을 이용하여 만드는 파스타가 이곳의 시그니처 메뉴이다.,064-739-1390,,,,0,,수~토 11:00 ~ 20:00 / 일요일 11:00 ~ 16:00,"월요일, 화요일",바다의계절 (생선과 대파크림으로 만든 파스타),바다의계절 / 수비드 스테이크 플레이트 / 알리오올리오 / 칠리 토마토 파스타 / 커뮤니 로제 그라탕 등,,,,,,,20170631332.0
2807920,달페이지,63534,,,제주특별자치도 서귀포시 색달로64번길 51 ,33.2597856977,126.4139408386,달페이지는 제주도에 위치한 예쁘고 감성적인 브런치 맛집이다. 따뜻하고 아늑한 달페이지 특유의 내부 인테리어가 눈길을 사로잡는다. 브런치는 예쁘기만 한 게 아니라 맛도 좋다. 달 브런치  콩포트 그릭요거트  크로크무슈  토마토스튜+바게트 등 다양한 종류의 브런치와 음료를 맛볼 수 있다. 데이트 및 가족 여행으로도 많이 들리는 곳이다. 1층 카페 공간을 제외한 나머지는 여행객들을 위한 숙소로 운영되고 있다.,010-3541-8896,,,,0,,09:30~15:00 (라스트오더 14:00),매주 수요일,달브런치,콩포트 그릭요거트 / 크로크무슈 / 토마토스튜+바게트 외,,,,,,,20200624364.0
2808037,원앤온리,63528,,,제주특별자치도 서귀포시 산방로 141 원앤온리 ,33.2392531422,126.3191995157,제주에서 가장 길고 고요한 황우치해변을 홀로 품고 명승 산방산을 지붕 삼은 유일한 곳이다. 카페에서 굿즈들도 판매하고 있어 기념품  사기에도 좋다. 명실상부 독보적인 제주 여행 필수코스로 자리매김한 원앤온리에서 가장 특별한 여행을 완성해보자.,050-1323-6186,,,,0,,09:00-20:00,연중무휴,"수제리코타치즈셀러드, 원앤온리 브런치",,,,,,"<a href=https://www.instagram.com/jejuoneandonly"" target=""_blank"" title=""새창 : 원앤온리"">https://www.instagram.com/jejuoneandonly</a>""",,
2808238,청춘부부,63520,,,제주특별자치도 서귀포시 추사로38번길 181 ,33.2659551202,126.2791190692,청춘부부는 감귤 창고를 리모델링하여 만든 공간이다. 카페 안에서 모든 디저트를 직접 만들고 원두를 로스팅하여 사용한다. 감귤 따기 체험 및 애견동반도 가능하다.,070-8887-1529,,,,0,,08:30~18:00<br>라스트오더 17:30,"매주 금요일, 토요일",청춘의 밤,청춘의 밤 / 바삭 에그타르트 / 소금빵 / 제주 귤 치즈케이크 외,,,,,,,20180624584.0
2810906,식당 마요네즈,63097,,,제주특별자치도 제주시 다랑곶3길 18 ,33.4889419444,126.4786745086,식당 마요네즈는 노형동에 위치한 돈가스 맛집이다. 친절한 사장님과 종업원이 맞이해 준다. 오픈키친으로 신뢰감을 올려준다. 등심 돈가스는 고소하고 담백하다. 안심 또한 부들부들한 고기의 식감이 있다.,"<a href=https://www.instagram.com/yangmayoh/"" target=""_blank"" title=""새창 : 식당 마요네즈"">www.instagram.com/yangmayoh</a>""",,,,0,,11:30~22:00 (브레이크타임 15:00~17:00),매주 일요일,등심 돈카츠,등심 돈카츠 / 안심 돈카츠 / 마요네즈 필라프 / 마제우동 등,,,,,,,20190621699.0
2810922,더스푼,63231,,,제주특별자치도 제주시 구남동1길 45 ,33.4934313312,126.5411634193,제주 아라이동 거리에 위치한 이탈리안 레스토랑 ‘더스푼’은 제주도가 고향인 셰프님이 제주의 제철 식재료를 접목한 정통 이탈리안 메뉴를 선보인다. 제주에서 나는 해산물  고기  채소 등 퀄리티 좋은 신선한 재료만을 이용하여 고급스러운 맛을 자아낸다. 성게와 어란이 올라간 성게어란파스타가 이곳의 대표메뉴이다. 코스로도 즐길 수 있고  단품으로도 즐길 수 있으며 와인 콜키지도 가능하다. 예약은 캐치테이블을 통해서 받고 있다.,064-725-1324,,,,0,,12:00~22:00 (브레이크타임 14:30~18:00),"매주 월요일, 화요일",성게어란파스타,성게어란파스타 / 명란타르트와 대파 / 구운 돌문어와 당근퓨레 / 시칠리아 아란치니 등,,,,,,,20160627316.0
2815586,독고집,63640,,,제주특별자치도 서귀포시 동류암로 43-1 ,33.4486895206,126.9158763733,독고집은 제주 서귀포시에 위치하고 있다. 고기의 품질이 뛰어나 다른 기교 없이도 맛이 좋은 추억의 연탄구이 흑돼지 특수부위 전문점이다. 흑돼지 통항정살  흑돼지 통가브리살  흑돼지 오겹살  흑목살 중 2가지씩 구성된 세트메뉴와 흑돼지 김치찌개  소고기 된장찌개  해장라면 등의 식사메뉴를 맛볼 수 있다. 주차는 근처 공영 주차장을 이용하면 된다.,064-784-8292,,,,0,,16:00~22:30 (라스트오더 21:30),연중무휴,통항정살+흑오겹살,통가브리살+흑오겹살 / 흑목살+흑오겹살 / 흑돼지김치찌개 / 해장라면 외,,,,,,,19900631012.0
2816971,숲섬이라면,63599,,,제주특별자치도 서귀포시 보목로64번길 80 1층,33.237235513,126.5961866567,‘숲섬이라면’은 서귀포 바다 앞에 위치하여 오션뷰를 만끽하며 식사할 수 있는 곳이다. 바다 멀리 숲섬도 한눈에 보인다. 좌석은 실내와 실외 모두 준비되어 있으며  신선한 해산물과 통오징어가 들어간 해물라면  오징어김밥  새우김밥 등이 있다.,0507-1383-0726,,,,0,,10:00~16:00 (라스트오더 15:45),연중무휴,고기국수 / 해물라면,고기국수 / 해물라면 / 몸국 / 의리떡볶이 외,,,,,,,20210624201.0
2818722,모루쿠다,63595,,,제주특별자치도 서귀포시 태평로431번길 32 1층,33.2483282576,126.5661834509,모루쿠다는 신선한 제주산 재료로 특색 있는 음식을 제공하는 식당이다. 흑돼지 보쌈 및 해산물  채소 찜이 제공되는 육합과 전복장 덮밥 등의 메뉴가 있다. 식사와 함께 술을 즐길 수 있어서 가족 및 연인들의 모임 장소로 좋다.,064-733-1477,,,가능,0,,11:20~23:00,,모루쿠다 육합,모루쿠다 육합 / 해산물 라멘 / 전복 돌문어장 비빔덮밥 등,,,가능,가능,가능,,20170631980.0
2820736,여기왕언제먹을래,63508,,,제주특별자치도 서귀포시 대정읍 하모리 855-3 2층,33.2228289427,126.2545082726,"여기왕언제먹을래는 제주 서귀포시 하모리에 위치한 한식 전문점이다. 이곳은
흑돼지 냉동 삼겹살을 맛볼 수 있는 곳으로 백김치와 미나리를 곁들여 먹을 수 있다. 특히 급냉을 시켜 일반 냉동 삼겹살과 달리 맛이 살짝 덜 익혀먹는 것이 포인트이다. 인근에 방어 축제의 거리를 관광할 수 있다.",064-794-3232,,,,0,,17:00~24:00,매주 월요일,흑돼지 냉동삼겹살 / 김치말이국수,흑돼지 냉동삼겹살 / 냉동우삼겹 / 김치말이국수 / 김치찌개 등,,,,,,,20010631488.0
2823379,하노이안브라더스,63307,,,제주특별자치도 제주시 천수동로 1 (건입동) ,33.5096601286,126.5435600648,하노이안브라더스는 한국인의 입맛에 맞는 베트남 현지식을 맛볼 수 있는 곳이다. 베트남 현지에서 공수한 인테리어 소품들로 마치 베트남의 온 듯한 분위기가 눈을 사로잡으며 반세오  분짜  쌀국수 등 현지 맛 그대로를 느끼게 해주는 식당이다.,064-752-7494,,,,0,,11:00~21:00<br>브레이크 타임 15:00~17:00<br>라스트 오더 20:00,매주 수요일,분짜,분짜 / 바잉쎄오 / 매운곱창쌀국수 / 까리가 / 양지쌀국수 외,,,,,,,20120627506.0
2824043,행복밀,63182,,,제주특별자치도 제주시 서광로 239 웰빌딩 ,33.5000525164,126.5220815945,행복밀은 제주공항 근처에 위치해 있으며 여행 마지막 코스로 다녀오기 좋은 베이커리 전문점이다. 하루 전날 예약하고 방문하면 원하는 품목을 넉넉하게 구매할 수 있다. 제주녹차크림빵이 유명하다. 빵은 부드러우며 녹차크림과 통달팥이 녹진하고 쌉싸름해서 고급스러운 맛이 난다. 이 외에도 쌀밤팥빵  제주녹차맘모스  마늘바게트 등 다양한 베이커리류를 구매할 수 있다. 빵지순례하기 좋은 곳이다.,064-722-8361,,,,0,,- 평일 09:00~20:30<br>- 토요일 09:00~19:30<br>- 일요일 09:30~19:30,연중무휴,제주녹차크림빵,쌀밤팥빵 / 슈크림도넛 / 마늘바게트 / 마늘버터스프레드 / 제주녹차맘모스 외,,,,,,,
2825249,금갈치,63255,,,제주특별자치도 제주시 고마로19길 2 1층,33.5045606678,126.54198254,금갈치는 동문시장과 제주공항 가까이에 위치해 있고 갈치·전복요리를 전문으로 하는 식당이다. 갈치조림과 구이는 신선하게 제공하기 위해 주문과 동시에 조리가 시작되어 시간이 15분 정도 소요된다. 갈치 살과 가시를 먹기 좋게 손질해 주어 먹기 편하다. 세트 메뉴가 있어 갈치와 전복을 동시에 즐길 수 있다.,0507-1351-4686,,,가능,0,,10:00~22:00,,갈치조림,갈치구이 / 전복물회 / 전복죽 등,,,가능,,,,20120627884.0
2828666,표선우동가게,63629,,,제주특별자치도 서귀포시 표선관정로 105-1 ,33.3241324617,126.8312976638,표선우동가게는 우동 전문점으로 우동 외에도 돈가스  덮밥 등 다양한 일식을 판매한다. 오픈 키친으로 깔끔하고 청결한 조리 과정을 볼 수 있다. 소박하고 먹음직스러운 음식들을 맛보면 누구나 반할 만큼 맛집이다. 정성스러운 음식 맛에 비해 저렴한 가격으로 더욱 인기이다. 가족  친구들과 부담 없이 방문할 수 있다. 주차는 가게 앞이나 건너편 무료공영주차장을 이용하면 된다.,064-900-4582,,,,0,,11:00~20:30 (브레이크타임 15:00~17:00 / 라스트오더 19:50),연중무휴,가케우동 / 붓가케우동 / 돈가스,우삼겹 덮밥 / 불고기 카레 덮밥 / 텐동 / 민찌 제육덮밥 외,,,,,,,20200624087.0
2829786,비케이브,63340,,,제주특별자치도 제주시 동백로 122 ,33.50838254,126.7200169877,비케이브는 유아 ‘숲의 아이’ 뮤직비디오 촬영으로 유명한 선흘 의자동굴과 7천여 평의 시즌별 넓은 꽃밭  숲 속의 오두막 아지트  그네 등으로 예쁜 사진 찍을 수 있는 포토존이 가득한 카페이다. 직접 양봉한 꿀과 화분을 이용한 아이스크림 라테와 수제요구르트 등 꿀을 이용한 음료 메뉴가 준비되어 있다.,0507-1410-8022,,,,0,,10:00~18:00 (라스트오더 17:00),연중무휴 (대관으로 인한 휴무 제외),비케이브 라떼,비케이브 라떼 / 벌꿀 밀크티 / 벌꿀 녹차라떼 / 소프트 아포가토 등,,,,,,,20220898870.0
2833409,선이네밥집,63331,,,제주특별자치도 제주시 조천읍 조천리 1220,33.5381668477,126.6399843684,"선이네 밥집은 제주시 조천읍에 위치한 한식 전문점이다. 
가정식 백반집으로 푸짐한 한정식 차림이 나와 다양한 반찬을 즐길 수 있다. 저렴한 가격에 가성비 맛집으로 유명하다. 직접 확인하고 고른 신선한 식재료로 정성스럽게 요리한다. 메뉴로는 일반정식  흑돼지불고기 정식 등이 있다.",064-727-3450,,,,0,,06:30~19:00,매주 일요일,선이네밥정식 / 흑돼지불고기정식,김치찌개 / 동태찌개 / 닭볶음탕 / 김치닭볶음탕,,,가능,,,,20140627204.0
2834542,내손에쏙물회 제주,63360,,064-784-1142,제주특별자치도 제주시 해맞이해안로 1142 1층,33.5366063573,126.8403170089,제주도 구좌읍 평대 해변에서 남쪽으로 해맞이 해안로를 따라가다 보면 만날 수 있는 물회 전문점이다. 특이하게 1리터 컵에 제주도 한치 물회를 맛볼 수 있도록 제공한다. 경북 영덕에서 시작된 컵 물회는 여행객들의 길거리 음식으로 제주도에 상륙하여 많은 인기를 끌고 있다. 매장에서는 물회  회덮밥  모둠회 등 다양한 일반 식사들도 가능하다.,064-784-1142,,,,0,,- 일~금요일 11:00~20:00<br>- 토요일 11:00~21:00,연중무휴,컵 물회,한치물회 / 회덮밥 / 물회 / 모둠회 외,,,,,,,20220899364.0
2834605,허디거디 이도점,63229,,,제주특별자치도 제주시 신설로11길 2-8 1층,33.4911288573,126.5442548699,허디거디는 제주공항 근처에 위치한 파스타 맛집으로 유명하다. 매장 내부는 블랙과 화이트 인테리어로 모던하고 깔끔한 분위기이며 매장 내부가 넓어 쾌적하다. 매장에는 반려동물 동반이 가능하다. 파스타  스테이크  필라프  피자 등 맛있는 이탈리아 요리를 부담 없는 가격에 맛볼 수 있는 가성비 맛집이다. 대표 메뉴는 해산물이 듬뿍 들어간 크림파스타와 특제 소스가 매력적인 목살 스테이크가 있다. 세트 메뉴로 다양한 메뉴를 가성비 있게 즐길 수 있어 좋다.,064-759-8985,,,,0,,11:30~22:00,연중무휴,허디거디 크림파스타,허디거디 크림파스타 / 비프로제파스타 / 목살스테이크샐러드 / 목살파인애플필라프 외,,,가능,가능,가능(전화 문의),"화장실:있음(남/녀 구분)
",20140628513.0
2847715,풀베개,63521,,,제주특별자치도 서귀포시 화순서서로 492-4 ,33.285511671,126.3032220973,"풀베개는 제주특별자치도 서귀포시 안덕면 서광리에 있다. 귤나무가 있는 소박하고 빈티지한 카페로 제주 구옥을 개조하여 카페로 꾸몄다. 초등학교 책걸상  철문을 상판으로 활용한 테이블  맥주 박스 의자 등 다양한 빈티지 소품과 유리천장 등 개성 있는 공간이며 어덜트 장난감  예쁜 패키지의 식료품도 판매한다. 대표메뉴는 스윗풀베개  마음이고  그 외 에스프레소  아메리카노  플렛 화이트  딸기라떼  허니밀크  식혜 등이 있다. 근처 여행지로 산양큰엉곶  황우치해안  제주곶자왈도립공원 등이 있다. 
※ 반려동물 동반 가능",064-792-2717,,,있음,0,,11:00 ~ 20:00 (19:00 라스트오더),매주 월요일,스윗풀베개,"마음, 에스프레소, 아메리카노 등",,,,,,,20200624096.0
2851706,영주말가든,63147,,,제주특별자치도 제주시 연북로 196 ,33.4812348356,126.5020254312,영주말가든은 제주특별자치도 제주시에 위치한 말고기 코스요리 맛집이다. 직접 말농장을 운영하여 신선하고 질 좋은 말고기를 제공한다. 다양한 코스요리가 준비되어 있어 입맛대로 선택하여 먹을 수 있다. 또한 밑반찬이 깔끔해 누구나 부담 없이 즐길 수 있다. 이 외에도 사시미  육회  구이  샤부샤부 등의 단품요리와 점심 특선까지 다양한 요리를 즐길 수 있다.,064-748-4343,,,,0,,10:00~22:00 (브레이크타임 15:00~16:00),연중무휴,코스요리,육회 / 육사시미 / 생구이 / 떡갈비 / 샤부샤부 외,,,,,,,20170628536.0
2851717,애월흑돼지 애월그때그집 본점,63043,,,제주특별자치도 제주시 애월해안로 97 ,33.4663503324,126.3242328947,흑돼지 김치찌개와 흑돼지 구이로 유명한 제주 맛집이다. 점심특선으로 흑돼지 김치찌개 전골을 주문 시 라면사리와 떡사리  계란 프라이  공깃밥이 무한 제공된다. 제주 흑돼지 세트를 주문 시 국내산 양념게장과 고사리  흑돼지 김치찌개  흑돼지 수제 소시지  왕새우 인당 1마리  계란 프라이 인당 1개가 제공되는데 고사리를 살짝 구워 오겹살과 양념게장 소스에 찍어 먹는 맛은 정말 일품이다.,064-799-9229,,,,0,,11:00~22:00 (라스트오더 21:00),연중무휴,흑돼지 세트,백돼지 세트 / 흑돼지 김치찌개전골 / 냉국수 / 날치알볶음밥 외,,,가능,,,,20150627458.0
2851992,마니주,63062,,,"제주특별자치도 제주시 광령2길 102 1,2층",33.4512036648,126.4288713573,마니주는 제주도 애월읍에 위치한 일식당이다. 모든 재료 100%가 제주산이다. 대표메뉴는 푸짐한 회의 양이 나오는 푸짐회 정식과 통갈치와 전복  활어회  초밥  튀김  매운탕까지 코스로 한상 가득 맛볼 수 있는 한상차림이다. 한상차림은 계절에 따라 음식이 달라지며  여기에 나오는 매운탕은 국내산 생선과 뼈를 매일 정성껏 직접 고아 우려낸 육수로 만들어 손님에게 제공한다.,064-743-0721,,,가능,0,,11:30~21:00<br>라스트오더 20:00,매주 수요일 / 명절 당일,마니주 한상차림,마니주 한상차림 / 마니주 푸짐회정식 / 마니주 특회정식 / 초밥 / 전복죽 외,,,가능,,가능(전화 문의),"화장실:있음(남/녀 구분)
",20030628059.0
2852215,코시롱,63049,,,제주특별자치도 제주시 애월해안로 656 1층,33.479496877,126.373453317,제주 오션뷰가 화려하게 펼쳐지는 코시롱은 한식  양식메뉴로 구성된 세미뷔페 식당이다. 고사리해장국과 몸국  성게미역국을 중심으로 제육볶음  새우장  고사리전 등 10가지 반찬으로 구성된 한상차림과 단품도 판매하고 있다. 제철 식재료로 매일 바뀌는 기본 반찬과 사골국물로 진하게 우려낸 제주향토음식 고사리해장국  몸국  성게미역국을 맛보고 싶다면 이곳을 추천한다.,0507-1360-5051,,,가능,0,,07:30~15:00<br>라스트오더 14:30,연중무휴,고사리해장국 한상,고사리해장국 한상 / 몸국 한상 / 성게전복 돌미역국 한상 /  해물고사리전 외,,,가능,,가능(네이버 예약),"화장실:있음(남/녀 구분)
",20160628285.0
2870797,어머니의뜻을담다 단지,63053,,,제주특별자치도 제주시 하귀2길 66 1층,33.48930751,126.4118691984,어머니의 뜻을 담다 단지는 하귀리 해안가에 있다. 제주 구옥의 구조  툇마루  댓돌 등 전통가옥의 느낌과 현대식 마감  입식과 좌식 테이블 등 신구의 조화가 이채롭다. 바다를 향한 큰 창을 통해 바다를 보며 한정식을 맛볼 수 있다. 음식이 유기그릇에 담겨 나와 차림새가 예쁘고 고기완자  생선조림을 비롯해 전라도 어머니의 손맛 가득한 반찬들이 조화롭다. 생선은 계절마다 변동될 수 있다.,064-712-0108,,,없음,0,,11:00~18:00,화요일,한우돼지완자 밥상,병어/참조기조림 밥상(시즌변경) / 간자미 초무침 / 꽃게무침 / 참꼬막/생굴 무침,,,,,,,20140628056.0
2899599,베카신,63341,,,제주특별자치도 제주시 우진오름길 144 1층,33.4649816279,126.7102243865,베카신은 제주시 조천읍 선흘리  우진제비오름 산책로 입구에 있는 베이커리 전문점이다. 케이크 맛집으로 유명하며 구움 과자  빵  파이 등 모양새도 예쁜 빵들을 판매한다. 이와 함께 아트북  와인  수입 식료품  그로서리  그릇  인센스 등을 판매하고 가끔 원데이 클래스도 운영한다. 빵지 순례 맛집으로 소문이 나서 일찍 소진되는 편으로 오픈런을 추천한다. 주변 여행지로 거문오름  제주교래자연휴양림  에코랜드 등이 있다.,0507-1392-8929,,,가능<br>※ 주차공간 협소,0,,11:00~19:00<br>※ 간혹 단축 영업을 할 때가 있음,연중무휴,케이크,"구움과자, 빵류, 파이류, 샌드위치, 커피 등",,,,,,,20210622448.0
2906375,해왕성반점본점,63069,,,제주특별자치도 제주시 우정로12길 10 (외도일동) ,33.4877357466,126.429828783,해왕성반점본점은 제주 외도동 주택가에 위치하고 있다. 동네에서 소문난 맛집으로 정통중화요리를 맛볼 수 있다. 모든 음식에 제주 돼지고기를 사용하는 집으로 매장에서 제주 돼지고기 인증점 지정서와 제주 돼지고기 판매 인증점 서약서를 확인할 수 있다. 재료를 큼직큼직하고 푸짐하게 사용하고 중식의 기본이 되는 탕수육이 맛있기로 유명하며 재료도 신선하다. 이 외에 차돌박이짬뽕 또한 추천메뉴이며  간짜장  새우볶음밥  양장피 등 다양한 중화요리를 맛볼 수 있다.,0507-1424-2066,,,불가,0,,11:00~19:40<br>브레이크타임 15:00~16:00<br>라스트오더 19:10,매주 수요일,차돌박이짬뽕,사천탕수육 / 등심탕수육 / 간짜장 / 새우볶음밥 / 세트메뉴 외,,,,,,,20030627019.0
3080165,봄날카페,63043,,,제주특별자치도 제주시 애월읍 애월로1길 25 ,33.4624810869,126.3096842483,"봄날은 애월 한담해변에 가장 먼저 생긴 카페로  한라봉 음료와 바다와 닿을 듯한 이곳만의 뷰  카페 전체가 포토존처럼 느껴지는 인테리어로 유명하다. 제주를 배경으로 한 MBC 드라마 맨도롱또똣의 촬영지이다. 워낙 많은 관광객이 찾는 한담해변의 명소로 선주문 후입장 시스템으로 운영한다.
대표메뉴는 한라봉에이드와 제주감귤밀크티이다. 제주의 카페답게 한라봉과 천혜향으로 만든 음료가 가장 인기가 많고 매장에서 정성스럽게 로스팅한 생두로 내린 오늘의 스페셜티 커피도 있다. 주문 후 카페 건물 안 테이블이나 테라스  바다 옆 테이블 등에서 커피를 마실 수 있다. 탁 트인 바다를 배경으로 알록달록한 벽화 페인팅과 아기자기한 소품들을 구경하며 음료를 마시고 힐링할 수 있다. 카페 손님들이 구입할 수 있는 제주의 기념품 가게도 같이 운영하고 있다.",0507-1494-4999,,,있음(소형 15대),0,,09:00~21:30,연중무휴,한라봉에이드 / 제주감귤밀크티,아메리카노 / 카페모카 / 아인슈페너 / 봄날천혜향쥬스 / 카페라떼 / 바닐라라떼 / 디저트 등,,,가능,,,"화장실:있음(남녀 구분)

",20120627565.0
3080468,마노르블랑,63527,,,제주특별자치도 서귀포시 안덕면 일주서로2100번길 46 ,33.2548510403,126.2949957149,"서귀포 바다가 보이는 산방산을 배경으로 2천여 평 규모의 정원에 7000여 본의 유럽 수국과 장미 그리고 동백으로 꾸며진 아름다운 정원이 있는 아날로그감성 뷰맛집 카페이다. 정원 곳곳마다 아기자기한 소품들을 배치해 놓아 다양한 컨셉의 인생샷 촬영지로 인기가 높다.  
제주 봄꽃 축제  4월~8월엔 유럽수국축제가 열리고  특히 8월에 개화하기 시작하는 핑크뮬리정원은 제주의 핑크뮬리성지라고 불릴 정도로 바람이 불면 핑크빛 파도가 넘실거리는 환상적인 포토스팟으로 잘 알려져 있다. 핑크뮬리 시즌에 시작하는 댑사리  팜파스 억새와 능소화 개화도 함께 볼 수 있다. 겨울엔 1천2백 주의 동백군락 감상도 하고 감귤체험  한라봉체험도 가능하다. 4계절 내내 방문 아름다운 정원 카페이며 카페 안은 엔틱한 소품들과 가구들로 꾸며져 있어 또 다른 구경거리를 제공하고 있다. 카페의 2층은 성인만 이용 가능하며 성인 동반 이용은 불가하다.
마노르블랑 방문할 때 근처 용머리해안과 송악산둘레길도 코스에 넣어 함께 둘러보는 것도 추천한다.",064-794-0909 / 0507-1339-1049,,,있음 (약 소형 50대 주차 가능),0,,09:00~19:00 (마지막 주문 18:00),연중무휴,한라봉 감귤 착즙 주스,커피류 / 차류 / 에이드 / 스무디,,,가능,가능,,"부대시설:야외 테라스 / 별관

화장실:있음 (남/녀 구분)

",20150631605.0
3303893,목장카페 밭디,63624,,,제주특별자치도 서귀포시 표선면 번영로 2486 ,33.4079305951,126.7722286455,‘밭디’는 제주도 방언으로 ‘밭에’라는 뜻이다. 목장카페 밭디는 목장과 카페를 함께 운영하는 곳으로 다양한 체험을 즐길 수 있다. 카페는 아늑한 내부와 아치형 창문을 통해 보이는 목장 전경이 아름답다. 제주도에서 나는 재료를 사용하며 대표 메뉴는 목장아이스크림라떼이다. 체험은 목장에서 진행하며 승마체험  이색자전거 체험  말먹이 주기 체험을 할 수 있다. 목장을 크게 한 바퀴 둘러싼 산책로는 바닥에 화산 송이가 깔려 있어서 가볍게 산책하기 좋다.,0507-1371-6019,,,가능,0,,09:00~18:00 (라스트오더 17:30),매주 수요일,우유아이스크림 / 목장 아이스크림라떼,우유아이스크림 / 목장 아이스크림라떼 / 아메리카노 / 제주 한라봉차 / 제주 호지차크림라떼 등,,,,,,,20220903377.0
664223,네거리식당,63592,네거리식당,064-762-5513,제주특별자치도 서귀포시 서문로29번길 20 ,33.2517832918,126.5572980318,신선한 재료를 이용한 제주 음식을 만날 수 있다. 제주특별자치도 서귀포시에 있는 한식 전문점이다. 대표메뉴는 갈치국과 성게미역국  고등어조림이다. 근처에 무료 주차장이 있으며 유명인사들이 다녀간 맛집이기도 하다.,064-762-5513,,,,0,,07:00 ~ 21:40 (라스트오더 20:40),,갈치국,"갈치국, 갈치구이, 갈치조림, 성게미역국, 옥돔미역국, 갈치구이, 고등어구이 외",,모두 금연석,가능,가능,전화 예약 문의 (064-762-5513),"장애인 편의시설:주출입구 경사로 설치
",20110631200.0
